SupplierID,SupplierName,Category,Country,City,ContactName,ContactEmail,ContactPhone,AnnualRevenue,PaymentTerms,Active,RelationshipStartDate,TierRanking,DiversityStatus,SustainabilityRating,RiskCategory,Region,Latitude,Longitude
TW_SUP_0001,Tech Utilities,Waste Management & Sludge Treatment,United Kingdom,Maidstone,Stella Fisher,stella.fisher@tech.co.uk,+44 1821 840087,209173234,Net 60,True,2024-03-25,Tier 1,Not Applicable,AA,Medium,West,53.29667418631166,0.6149318110129327
TW_SUP_0002,Clear Miller Group,Engineering Design Services,United Kingdom,Cambridge,Mia Diaz,mia.diaz@clear.co.uk,+44 9388 961007,325811643,e,True,2018-04-10,Tier 2,Women-Owned,CCC,High,West,56.95999532441643,0.8013271821836945
TW_SUP_0003,London Partners,Fleet Management & Logistics,United Kingdom,Southampton,Elizabeth Powell,elizabeth.powell@london.co.uk,+44 8224 275466,5959124,e,True,2023-05-07,Tier 1,Veteran-Owned,AAA,Critical,Central,53.75510372513543,-3.6165543429012863
TW_SUP_0004,Cyber PLC,Fleet Management & Logistics,Spain,Barcelona,Steven Taylor,steven.taylor@cyber.co.uk,+44 8699 851713,133197164,e,False,2017-11-02,Tier 1,Veteran-Owned,A,Critical,International,44.286817630473834,-34.55902117397018
TW_SUP_0005,London Insight Consulting 1,Mechanical & Electrical Engineering,United Kingdom,Reading,Stephen Mitchell,stephen.mitchell@london.co.uk,+44 9638 838675,398535321,e,True,2020-06-10,Tier 3,Minority-Owned,AAA,Medium,East,53.541159299549925,-4.317235845562842
TW_SUP_0006,Thames Jones Tech,Leakage Detection Services,United Kingdom,Basingstoke,Skylar Sanders,skylar.sanders@thames.co.uk,+44 7329 457038,363964616,e,True,2021-02-13,Tier 3,Minority-Owned,AAA,Medium,West,51.79287341535522,-3.6938362086214793
TW_SUP_0007,Tech Dynamics,Environmental Consultancy,United Kingdom,Luton,Natalie Carter,natalie.carter@tech.co.uk,+44 9708 201311,162623910,e,True,2021-07-29,Tier 3,Small Business,A,Medium,South,51.76041850575805,-3.8511080049136
TW_SUP_0008,Barnes & White Partners,Leakage Detection Services,Netherlands,Amsterdam,Evelyn Hall,evelyn.hall@barnes.co.uk,+44 9279 722349,15001059,e,True,2018-04-27,Tier 2,Veteran-Owned,AAA,Low,International,26.388999114987286,36.56096289697223
TW_SUP_0009,Thames Advisory,Customer Service Solutions,Spain,Barcelona,Jacob Thomas,jacob.thomas@thames.co.uk,+44 3456 135405,109144204,e,True,2018-08-04,Tier 2,Minority-Owned,A,Low,International,42.951081084876996,-3.3187768006847023
TW_SUP_0010,Flow Insight Consulting 2,Heavy Plant & Equipment Hire,Germany,Cologne,Sarah James,sarah.james@flow.co.uk,+44 8071 438878,30524338,e,True,2020-08-29,Tier 1,Women-Owned,AAA,High,International,38.35697332868103,38.140535127239616
TW_SUP_0011,Digital Engineering,Research & Development,United Kingdom,Liverpool,James Jones,james.jones@digital.co.uk,+44 6811 590416,21628476,e,True,2024-02-23,Tier 3,Minority-Owned,CCC,Critical,West,57.07730077360156,-2.089310768180891
TW_SUP_0012,Flow Insight Consulting 3,IT & Technology Solutions,United Kingdom,Slough,Gabriella Scott,gabriella.scott@flow.co.uk,+44 1122 474711,195951317,e,True,2017-07-13,Tier 1,Veteran-Owned,AA,High,Central,54.074769070605036,-1.4577293365007815
TW_SUP_0013,Severn Insight Partners 3,Water Treatment Plant Operations,France,Marseille,Avery Kelly,avery.kelly@severn.co.uk,+44 6302 173102,269903533,e,True,2023-05-26,Tier 1,Minority-Owned,B,Medium,International,29.692018100236577,-29.183554696647533
TW_SUP_0014,Rogers & Thompson Partners,Mechanical & Electrical Engineering,Ireland,Limerick,Andrew Bailey,andrew.bailey@rogers.co.uk,+44 7633 169166,231880227,e,True,2019-05-12,Tier 2,Small Business,AA,Low,International,33.79588112430365,1.5979045413343442
TW_SUP_0015,Flow Campbell-Smith Tech,IT & Technology Solutions,Spain,Madrid,Madison Richardson,madison.richardson@flow.co.uk,+44 1149 903165,134347387,e,True,2019-03-01,Tier 3,Minority-Owned,AA,Low,International,37.27330988404362,-115.687224176869
TW_SUP_0016,London Baker Solutions,Facilities Management,United Kingdom,Manchester,Steven Smith,steven.smith@london.co.uk,+44 9660 807857,377806955,e,True,2024-04-21,Tier 1,Not Applicable,A,Critical,South,50.2057388991306,-4.438824966308186
TW_SUP_0017,Clear Moore-Taylor Services,Customer Service Solutions,United Kingdom,Southampton,Chloe Jackson,chloe.jackson@clear.co.uk,+44 9624 742230,395720742,e,True,2023-04-18,Tier 2,Veteran-Owned,AA,High,East,55.88430721587587,0.3328469894071606
TW_SUP_0018,Hydro Powell Ltd,Engineering Design Services,United Kingdom,Maidstone,Anthony Perry,anthony.perry@hydro.co.uk,+44 5761 701845,234846679,e,True,2023-03-29,Tier 3,Women-Owned,CCC,Critical,West,56.22181738085123,-2.6378692916927977
TW_SUP_0019,Southern Johnson Advisory,Facilities Management,United Kingdom,Guildford,Emily Ortiz,emily.ortiz@southern.co.uk,+44 6567 105605,311729671,e,True,2018-12-26,Tier 2,Minority-Owned,B,Medium,North,50.30021962144346,-0.810501088011871
TW_SUP_0020,Southern Insight Advisory 2,Professional Services (Legal/HR),United States,Atlanta,Nicholas Rogers,nicholas.rogers@southern.co.uk,+44 1075 889032,76417731,e,False,2024-03-15,Tier 3,Veteran-Owned,AAA,Low,International,39.36515925915974,23.099792964797416
TW_SUP_0021,Clear Sanders-Rodriguez Tech,Health & Safety Consultancy,France,Lille,Claire Edwards,claire.edwards@clear.co.uk,+44 8429 668175,225523848,e,True,2019-11-28,Tier 3,Minority-Owned,BB,Critical,International,27.761726105001284,-92.57975710925655
TW_SUP_0022,Kennet PLC,Renewable Energy Solutions,United States,New York,Grace Cruz,grace.cruz@kennet.co.uk,+44 9304 354289,215957135,e,True,2023-02-20,Tier 1,Women-Owned,AA,High,International,32.19675043997336,-10.165344239807183
TW_SUP_0023,Southern Hughes-Allen Advisory,Health & Safety Consultancy,United Kingdom,Swindon,Maria Ramirez,maria.ramirez@southern.co.uk,+44 4773 305849,57496647,e,True,2019-04-19,Tier 2,Small Business,B,High,South,56.21034942580548,-2.9069243433997873
TW_SUP_0024,Bennett & Lee Consulting,Renewable Energy Solutions,United Kingdom,Aylesbury,Alice Richardson,alice.richardson@bennett.co.uk,+44 3924 644868,286619725,e,False,2022-09-13,Tier 3,Minority-Owned,BB,Critical,West,55.68088687420155,-3.243032818398264
TW_SUP_0025,Fisher & Foster Consulting,Mechanical & Electrical Engineering,Spain,Valencia,Evelyn Roberts,evelyn.roberts@fisher.co.uk,+44 6166 952641,168426149,e,True,2023-06-16,Tier 1,Not Applicable,B,Medium,International,36.42898680563091,4.62341706520121
TW_SUP_0026,Southern James Utilities,Professional Services (Legal/HR),Ireland,Dublin,Harper Stewart,harper.stewart@southern.co.uk,+44 6773 418463,151279298,e,True,2020-12-15,Tier 1,Minority-Owned,A,Critical,International,27.422497102164947,15.273835276834745
TW_SUP_0027,London Harris Consulting,Renewable Energy Solutions,United Kingdom,London,Emily Ward,emily.ward@london.co.uk,+44 4086 474997,307121319,e,True,2023-09-22,Tier 3,Minority-Owned,CCC,Medium,Central,55.05203723806692,-0.12520592144169562
TW_SUP_0028,Aqua James Engineering,Metering Technology & Services,United Kingdom,Glasgow,Benjamin Cruz,benjamin.cruz@aqua.co.uk,+44 8881 853813,38483267,e,True,2020-09-14,Tier 2,Not Applicable,BBB,Medium,Central,54.925075669725615,-3.7129374784004874
TW_SUP_0029,Severn Brooks-Thompson Solutions,IT & Technology Solutions,United Kingdom,Glasgow,Claire Barnes,claire.barnes@severn.co.uk,+44 8213 895200,148381840,e,True,2021-12-31,Tier 3,Small Business,AA,Medium,West,51.95248124876909,-1.6052682774974834
TW_SUP_0030,Pipe Insight Advisory 2,Environmental Consultancy,Netherlands,The Hague,Emily Allen,emily.allen@pipe.co.uk,+44 8605 772436,129091264,e,True,2018-07-16,Tier 3,Small Business,CCC,Medium,International,33.49237874412297,-43.660886256060394
TW_SUP_0031,Cyber Advisory,Environmental Consultancy,France,Paris,Stephen Roberts,stephen.roberts@cyber.co.uk,+44 8638 361314,12243099,e,True,2022-11-08,Tier 1,Small Business,A,Low,International,46.21476044621839,7.534670918953253
TW_SUP_0032,Enviro Cook-Sanders Advisory,Heavy Plant & Equipment Hire,United Kingdom,Basingstoke,Madison James,madison.james@enviro.co.uk,+44 5384 563513,345951080,e,True,2023-04-01,Tier 2,Veteran-Owned,BBB,Low,Central,54.32009161998124,-3.139583723717973
TW_SUP_0033,Aqua Watson-Green Consulting,Facilities Management,France,Bordeaux,Alexander Brooks,alexander.brooks@aqua.co.uk,+44 6913 137530,139991179,e,True,2019-01-15,Tier 2,Veteran-Owned,A,High,International,37.73388129740928,-54.4630289235905
TW_SUP_0034,Perry & Gray Consulting,Renewable Energy Solutions,Germany,Munich,Penelope Peterson,penelope.peterson@perry.co.uk,+44 5406 621389,77770869,e,True,2019-05-22,Tier 2,Minority-Owned,AAA,Critical,International,38.04111796724241,-31.058735771091506
TW_SUP_0035,Watson & Cruz Partners,Heavy Plant & Equipment Hire,Netherlands,Rotterdam,Penelope Moore,penelope.moore@watson.co.uk,+44 5026 679255,287199737,e,True,2018-12-28,Tier 2,Not Applicable,B,Critical,International,26.38143113826868,-63.51396902917644
TW_SUP_0036,Martin & Green Advisory,Health & Safety Consultancy,United Kingdom,Luton,Victoria Roberts,victoria.roberts@martin.co.uk,+44 7781 958069,344306768,e,True,2023-05-22,Tier 1,Veteran-Owned,CCC,High,Central,57.54313203158327,-2.4238780601099146
TW_SUP_0037,Severn Tech,Fleet Management & Logistics,United Kingdom,Reading,Maria Roberts,maria.roberts@severn.co.uk,+44 1588 653013,30921355,e,False,2018-01-21,Tier 3,Veteran-Owned,BB,Medium,West,55.49191110990857,-1.2982633015411702
TW_SUP_0038,Martin & White Advisory,Water Treatment Plant Operations,United Kingdom,Oxford,Benjamin Rivera,benjamin.rivera@martin.co.uk,+44 7995 868606,186403085,e,True,2023-09-06,Tier 1,Women-Owned,Not Rated,Critical,North,52.658639529529154,-4.62281533667646
TW_SUP_0039,Enviro Morgan Solutions,Research & Development,United Kingdom,Cambridge,Sophia Gomez,sophia.gomez@enviro.co.uk,+44 6241 487525,71701024,e,True,2022-04-17,Tier 1,Minority-Owned,AAA,Critical,East,51.70697143829796,1.6478189199291293
TW_SUP_0040,Tech Reed Engineering,Water Treatment Plant Operations,United Kingdom,Manchester,Caleb Murphy,caleb.murphy@tech.co.uk,+44 9206 886362,316901695,e,False,2023-08-09,Tier 3,Not Applicable,AAA,High,East,52.17810413413401,-5.421245899164297
TW_SUP_0041,Morales & Gray Consulting,Environmental Consultancy,United Kingdom,Slough,James Long,james.long@morales.co.uk,+44 5588 439700,353581944,e,True,2017-07-03,Tier 2,Small Business,B,Critical,South,56.23741614195675,-3.0300225337092788
TW_SUP_0042,Southern Taylor Utilities,Metering Technology & Services,United Kingdom,Luton,Hannah Young,hannah.young@southern.co.uk,+44 5706 924781,148343930,e,True,2022-05-07,Tier 3,Not Applicable,AA,Critical,West,54.469466014876424,-1.9155911734554723
TW_SUP_0043,Aqua Jenkins-Gutierrez Utilities,Pipeline & Network Maintenance,United Kingdom,Manchester,Natalie Ramirez,natalie.ramirez@aqua.co.uk,+44 3922 912089,162337199,e,True,2018-01-17,Tier 2,Minority-Owned,Not Rated,High,East,52.74412397755343,-3.337050803489521
TW_SUP_0044,Miller & Lee Consulting,Health & Safety Consultancy,United Kingdom,Maidstone,Skylar Jackson,skylar.jackson@miller.co.uk,+44 4453 212799,13455788,e,True,2020-03-11,Tier 3,Women-Owned,A,Low,East,50.70606269177769,-1.1680983881004785
TW_SUP_0045,Southern Rogers-Anderson Dynamics,Engineering Design Services,United Kingdom,Maidstone,Christopher Cook,christopher.cook@southern.co.uk,+44 2821 572235,101151925,e,True,2019-05-12,Tier 1,Women-Owned,BB,Low,South,50.73186656082502,-4.4322705603603465
TW_SUP_0046,Pipe Utilities,Renewable Energy Solutions,United Kingdom,Slough,James Rogers,james.rogers@pipe.co.uk,+44 1048 586356,165094823,e,False,2018-04-21,Tier 1,Veteran-Owned,B,Critical,Central,56.80573409741179,-3.5834069240830146
TW_SUP_0047,Cyber Utilities,Civil Engineering & Construction,Ireland,Limerick,Kenneth Kelly,kenneth.kelly@cyber.co.uk,+44 8433 856845,195261491,e,True,2021-05-06,Tier 1,Women-Owned,AA,High,International,34.35635786754759,20.98753158886862
TW_SUP_0048,Southern Butler-Nelson Water,Fleet Management & Logistics,United Kingdom,Manchester,Sophia Morgan,sophia.morgan@southern.co.uk,+44 8208 432370,176647759,e,True,2022-06-12,Tier 2,Veteran-Owned,A,Critical,South,54.170964750599275,-0.6554045987000787
TW_SUP_0049,Davis & Parker Partners,Heavy Plant & Equipment Hire,United Kingdom,Chelmsford,Benjamin Harris,benjamin.harris@davis.co.uk,+44 1584 769119,358442349,e,True,2023-09-07,Tier 2,Veteran-Owned,AAA,High,Central,54.22590480507851,-2.316557620791384
TW_SUP_0050,Kennet Services,Water Treatment Plant Operations,United Kingdom,Manchester,Sophia Martin,sophia.martin@kennet.co.uk,+44 9926 206638,298542135,e,True,2017-09-28,Tier 3,Not Applicable,BBB,High,Central,52.972582956031175,0.7288057910197496
TW_SUP_0051,Thames Insight Advisory 3,Heavy Plant & Equipment Hire,United Kingdom,Chelmsford,Jonathan Rivera,jonathan.rivera@thames.co.uk,+44 2493 334229,42458281,e,True,2023-11-15,Tier 3,Veteran-Owned,AA,Low,East,56.50710825782795,-5.560294755990513
TW_SUP_0052,Severn Tech,Chemicals Supply,United Kingdom,Bristol,James Morgan,james.morgan@severn.co.uk,+44 9393 295900,34431318,e,True,2023-06-20,Tier 1,Women-Owned,AAA,High,North,55.095399615634875,1.7927078274756951
TW_SUP_0053,Kennet Jackson-King Engineering,Waste Management & Sludge Treatment,United Kingdom,Oxford,Steven Miller,steven.miller@kennet.co.uk,+44 8673 657454,55768253,e,True,2018-09-07,Tier 3,Small Business,BBB,Medium,North,51.44925057328108,-1.3352477016988233
TW_SUP_0054,Southern PLC,Water Treatment Plant Operations,United Kingdom,Bristol,Anthony Ward,anthony.ward@southern.co.uk,+44 1143 597977,42795550,e,True,2022-05-14,Tier 1,Veteran-Owned,BBB,Low,East,50.852377528849914,-5.843694612091719
TW_SUP_0055,Thames Insight Partners 3,Chemicals Supply,United Kingdom,Manchester,Benjamin White,benjamin.white@thames.co.uk,+44 6582 782423,274278840,e,True,2022-09-07,Tier 3,Not Applicable,A,High,North,53.33210031518574,-5.698133636899354
TW_SUP_0056,Kennet Insight Consulting 3,Pipeline & Network Maintenance,United States,Dallas,Claire Ramirez,claire.ramirez@kennet.co.uk,+44 5349 398762,116062015,e,True,2021-08-02,Tier 3,Veteran-Owned,AA,Low,International,41.35475975949785,-59.28171788496595
TW_SUP_0057,Digital Insight Partners 3,Fleet Management & Logistics,United Kingdom,Guildford,Nicole Brooks,nicole.brooks@digital.co.uk,+44 9574 522423,362134571,e,True,2023-08-13,Tier 3,Not Applicable,B,Low,Central,52.47441115585242,-5.672097866191207
TW_SUP_0058,Cyber Systems,Waste Management & Sludge Treatment,United Kingdom,Southampton,Claire Barnes,claire.barnes@cyber.co.uk,+44 3771 891590,125723327,e,True,2022-01-01,Tier 1,Not Applicable,A,Critical,North,54.32481290157743,0.11245285636718627
TW_SUP_0059,Tech Collins Advisory,Fleet Management & Logistics,United Kingdom,Chelmsford,Daniel Wright,daniel.wright@tech.co.uk,+44 8597 602795,209663167,e,True,2023-07-07,Tier 2,Women-Owned,A,Low,West,56.8742761898203,1.4308166042256687
TW_SUP_0060,Walker & Myers Partners,Fleet Management & Logistics,United Kingdom,Southampton,Grace Rivera,grace.rivera@walker.co.uk,+44 6819 517172,103213704,e,True,2018-05-22,Tier 2,Women-Owned,AAA,Medium,South,57.04224208970696,1.5022766347268224
TW_SUP_0061,Data Wright-Phillips Engineering,Engineering Design Services,United Kingdom,Southampton,Adam Harris,adam.harris@data.co.uk,+44 4616 514780,44375845,e,True,2021-07-19,Tier 1,Not Applicable,BB,Medium,East,52.30630442368706,1.0433832791879523
TW_SUP_0062,Aqua Wilson Systems,Fleet Management & Logistics,Germany,Berlin,Sophia Nguyen,sophia.nguyen@aqua.co.uk,+44 8267 862181,259742130,e,True,2020-02-08,Tier 2,Minority-Owned,AAA,Low,International,27.89802115161844,-72.4402348929994
TW_SUP_0063,Cyber Nguyen Solutions,Professional Services (Legal/HR),United Kingdom,Birmingham,Brian Baker,brian.baker@cyber.co.uk,+44 7231 197391,4775101,e,True,2022-08-23,Tier 3,Not Applicable,Not Rated,Critical,Central,54.591468486681265,1.6026787263770546
TW_SUP_0064,Enviro Services,Chemicals Supply,United Kingdom,Luton,Samantha Murphy,samantha.murphy@enviro.co.uk,+44 8404 251778,330906156,e,True,2019-05-16,Tier 3,Not Applicable,AAA,Critical,East,55.03959656445864,-2.297853078032014
TW_SUP_0065,Data Baker-Harris Ltd,Heavy Plant & Equipment Hire,United Kingdom,Slough,Adam Bell,adam.bell@data.co.uk,+44 5331 605347,121352826,e,False,2023-12-25,Tier 1,Women-Owned,BB,Medium,West,57.83118122219804,1.2905901203351178
TW_SUP_0066,Aqua Hughes-Smith Systems,Professional Services (Legal/HR),United States,New York,Paul Clarke,paul.clarke@aqua.co.uk,+44 8561 990779,135800840,e,True,2022-03-26,Tier 1,Small Business,A,Medium,International,54.17658167097409,34.72157217044608
TW_SUP_0067,Cyber Insight Advisory 2,Customer Service Solutions,United Kingdom,Manchester,Benjamin Cruz,benjamin.cruz@cyber.co.uk,+44 8125 713196,109647248,e,True,2020-02-07,Tier 3,Not Applicable,BBB,Low,North,54.42802751887361,-3.411303511186022
TW_SUP_0068,Adams & Taylor Consulting,Metering Technology & Services,United Kingdom,Winchester,Ava Roberts,ava.roberts@adams.co.uk,+44 5122 912929,149799405,e,True,2017-10-30,Tier 3,Small Business,BB,Critical,North,51.48599917491231,-0.1999810915159026
TW_SUP_0069,Cyber Partners,Waste Management & Sludge Treatment,United Kingdom,Liverpool,Sarah Watson,sarah.watson@cyber.co.uk,+44 2356 335870,343245006,e,True,2022-03-08,Tier 3,Minority-Owned,AA,Critical,South,56.84050488368109,-5.273139700460447
TW_SUP_0070,Southern Morris-Green Dynamics,Leakage Detection Services,United Kingdom,Swindon,Amelia Sanders,amelia.sanders@southern.co.uk,+44 8904 912627,84826228,e,True,2021-08-26,Tier 1,Not Applicable,AAA,Low,West,50.90243777827258,1.6432463015643073
TW_SUP_0071,Hydro Sullivan Dynamics,IT & Technology Solutions,United Kingdom,Reading,Matthew Rodriguez,matthew.rodriguez@hydro.co.uk,+44 7200 974319,294591533,e,False,2019-12-22,Tier 1,Minority-Owned,AA,Low,North,55.86011983831729,-2.8673151292358936
TW_SUP_0072,Digital Insight Advisory 1,Pipeline & Network Maintenance,United Kingdom,Cambridge,Tyler Scott,tyler.scott@digital.co.uk,+44 1418 885239,388773969,e,True,2020-07-07,Tier 3,Women-Owned,B,Medium,East,53.426181115538256,-5.1847455496246155
TW_SUP_0073,London Insight Partners 3,Customer Service Solutions,United Kingdom,Swindon,Chloe Cox,chloe.cox@london.co.uk,+44 1632 863956,379412164,e,True,2017-08-27,Tier 3,Small Business,BB,Critical,Central,50.806455490638086,1.5481422586668625
TW_SUP_0074,Data Perry PLC,Health & Safety Consultancy,United Kingdom,Maidstone,Avery Sanders,avery.sanders@data.co.uk,+44 7767 212186,140011235,e,False,2018-06-11,Tier 3,Minority-Owned,A,Critical,North,53.832745357233875,0.7279224544608986
TW_SUP_0075,Data PLC,Mechanical & Electrical Engineering,United Kingdom,Cambridge,Alexis Bell,alexis.bell@data.co.uk,+44 7753 120772,193995625,e,True,2021-06-23,Tier 3,Women-Owned,A,Critical,West,56.88653047725208,-3.0770440104550967
TW_SUP_0076,Thames Insight Advisory 2,Metering Technology & Services,United Kingdom,Cambridge,Thomas Morris,thomas.morris@thames.co.uk,+44 3130 639821,313398841,e,True,2021-05-14,Tier 1,Women-Owned,B,High,Central,53.88184781341931,-3.4457097329732833
TW_SUP_0077,Tech Ltd,Water Treatment Plant Operations,Germany,Cologne,Timothy Rogers,timothy.rogers@tech.co.uk,+44 9017 213456,360144325,e,True,2019-11-03,Tier 3,Not Applicable,B,Critical,International,28.845208698929703,-83.29453696170475
TW_SUP_0078,Digital Insight Consulting 3,Customer Service Solutions,France,Bordeaux,Samuel Sullivan,samuel.sullivan@digital.co.uk,+44 3092 441166,334899784,e,True,2018-06-27,Tier 3,Women-Owned,A,Medium,International,31.806359304608357,-57.030759152751145
TW_SUP_0079,Data Insight Partners 2,Chemicals Supply,Germany,Hamburg,Daniel Ortiz,daniel.ortiz@data.co.uk,+44 7646 857247,132349983,e,False,2019-10-02,Tier 3,Not Applicable,AAA,High,International,47.98006895931802,10.246463660167848
TW_SUP_0080,Chem Ltd,Customer Service Solutions,United States,Dallas,Alexis Ramirez,alexis.ramirez@chem.co.uk,+44 6767 465127,48811268,e,False,2023-08-21,Tier 3,Veteran-Owned,BB,High,International,50.861882322857795,-34.78430499187894
TW_SUP_0081,Digital Edwards-Gomez Services,Professional Services (Legal/HR),United Kingdom,Manchester,Rebecca King,rebecca.king@digital.co.uk,+44 1597 319365,118933320,e,True,2020-11-28,Tier 2,Small Business,AAA,High,South,51.90061530059867,-2.8317772292507457
TW_SUP_0082,Thames Diaz-Barnes Technologies,Health & Safety Consultancy,United Kingdom,Edinburgh,Elizabeth Clarke,elizabeth.clarke@thames.co.uk,+44 6555 870213,11748543,e,True,2024-05-09,Tier 2,Veteran-Owned,CCC,Low,East,57.39435118399829,0.6447568257992682
TW_SUP_0083,Hydro Garcia-Ward Dynamics,Waste Management & Sludge Treatment,United States,Chicago,Ethan Cox,ethan.cox@hydro.co.uk,+44 1037 775010,57557264,e,True,2021-11-17,Tier 1,Women-Owned,B,Medium,International,26.178776146968186,-30.787659949630566
TW_SUP_0084,London Harris Engineering,Waste Management & Sludge Treatment,United Kingdom,Reading,Ethan Price,ethan.price@london.co.uk,+44 3616 721569,37979181,e,True,2021-05-26,Tier 2,Not Applicable,B,Critical,West,52.23786409636215,-4.650121330914645
TW_SUP_0085,UK Systems,Renewable Energy Solutions,Germany,Berlin,Richard Kelly,richard.kelly@uk.co.uk,+44 5288 177799,361208467,e,False,2024-03-07,Tier 2,Veteran-Owned,AAA,Critical,International,46.76197358810636,-21.777854144973503
TW_SUP_0086,Moore & Young Partners,Renewable Energy Solutions,United Kingdom,Slough,Ethan Powell,ethan.powell@moore.co.uk,+44 9044 323748,18014517,e,False,2017-09-25,Tier 2,Small Business,A,Critical,West,53.47485312002346,-3.1594707766000023
TW_SUP_0087,London Ltd,Facilities Management,United Kingdom,Luton,Kenneth Peterson,kenneth.peterson@london.co.uk,+44 7594 972564,277034319,e,False,2022-09-30,Tier 3,Not Applicable,BBB,Low,South,55.64162502666068,-1.5512313257702228
TW_SUP_0088,Foster & Sanders Consulting,Metering Technology & Services,Germany,Berlin,Sophia Rodriguez,sophia.rodriguez@foster.co.uk,+44 5356 416171,114235985,e,True,2021-12-11,Tier 3,Minority-Owned,A,Medium,International,54.1155379082947,-77.41887651199684
TW_SUP_0089,Tech Group,Environmental Consultancy,France,Lille,Dylan Harris,dylan.harris@tech.co.uk,+44 3702 470920,255105299,e,True,2022-05-07,Tier 2,Veteran-Owned,BB,Medium,International,57.7578983750085,12.819110677725945
TW_SUP_0090,UK Insight Advisory 1,Waste Management & Sludge Treatment,United Kingdom,Cambridge,Joseph Nguyen,joseph.nguyen@uk.co.uk,+44 6540 951353,182920168,e,False,2024-01-07,Tier 2,Small Business,BB,High,East,50.26714904605525,-1.212925813837165
TW_SUP_0091,Thames Kelly-Sullivan Advisory,Environmental Consultancy,United Kingdom,Slough,Gabriella Martin,gabriella.martin@thames.co.uk,+44 7506 359396,223064118,e,False,2017-08-05,Tier 3,Not Applicable,A,High,West,52.543436583155575,0.3902863068364866
TW_SUP_0092,Data Tech,Health & Safety Consultancy,United Kingdom,Edinburgh,Stella Scott,stella.scott@data.co.uk,+44 5338 984070,199570815,e,False,2021-02-23,Tier 3,Women-Owned,AAA,High,East,55.69461610104199,1.2073144373910871
TW_SUP_0093,London Ward-Miller Technologies,Pipeline & Network Maintenance,Ireland,Dublin,Natalie Jones,natalie.jones@london.co.uk,+44 5529 863371,385573894,e,True,2018-07-07,Tier 3,Not Applicable,Not Rated,Critical,International,54.78547573376611,-48.33276680860793
TW_SUP_0094,Lewis & Moore Consulting,Waste Management & Sludge Treatment,United Kingdom,Luton,Eva Bell,eva.bell@lewis.co.uk,+44 2963 425245,279336085,e,False,2020-05-13,Tier 1,Veteran-Owned,BBB,High,South,56.161599352425384,-5.120609560944105
TW_SUP_0095,Jenkins & Harris Partners,Heavy Plant & Equipment Hire,United Kingdom,Edinburgh,Elizabeth Powell,elizabeth.powell@jenkins.co.uk,+44 3747 239640,257653562,e,True,2020-02-17,Tier 3,Women-Owned,Not Rated,Medium,West,53.13120286820271,-0.7899950707462757
TW_SUP_0096,Digital Water,Civil Engineering & Construction,United Kingdom,Bristol,Natalie Davis,natalie.davis@digital.co.uk,+44 6523 199649,245443081,e,False,2021-01-24,Tier 1,Veteran-Owned,B,Medium,Central,52.69309153085219,0.304263355478942
TW_SUP_0097,Jackson & Brown Advisory,Professional Services (Legal/HR),United Kingdom,Leeds,Ava Hughes,ava.hughes@jackson.co.uk,+44 5862 839476,95274897,e,True,2018-06-27,Tier 1,Veteran-Owned,CCC,Medium,Central,55.99252511793072,-1.107558684974884
TW_SUP_0098,Nelson & Murphy Consulting,Water Treatment Plant Operations,United Kingdom,Oxford,Richard Green,richard.green@nelson.co.uk,+44 5304 551133,389870024,e,True,2022-12-08,Tier 3,Small Business,A,Critical,South,50.31823231758039,-1.9146851526390005
TW_SUP_0099,Chem Williams-Evans Water,Professional Services (Legal/HR),Germany,Berlin,Penelope Rivera,penelope.rivera@chem.co.uk,+44 6169 148451,284096329,e,True,2022-07-13,Tier 1,Veteran-Owned,CCC,Critical,International,46.6574367991182,-28.84413381990008
TW_SUP_0100,Cooper & Richardson Partners,Civil Engineering & Construction,United Kingdom,Liverpool,Liam Foster,liam.foster@cooper.co.uk,+44 2430 357215,110640440,e,True,2021-07-23,Tier 1,Not Applicable,BBB,High,West,56.87824037146304,-1.503427949941348
TW_SUP_0101,Kennet Taylor PLC,Professional Services (Legal/HR),United Kingdom,Southampton,Alexander Wright,alexander.wright@kennet.co.uk,+44 2483 137434,215014267,e,True,2023-03-02,Tier 3,Not Applicable,AAA,High,East,52.21614515446822,-4.04481555751538
TW_SUP_0102,Data Group,Waste Management & Sludge Treatment,United Kingdom,Guildford,Benjamin Flores,benjamin.flores@data.co.uk,+44 7922 501727,37156945,e,True,2020-10-17,Tier 2,Small Business,BB,Low,Central,57.099572595632665,-1.453945831779853
TW_SUP_0103,Aqua Barnes PLC,Environmental Consultancy,United Kingdom,Leeds,Hannah Hughes,hannah.hughes@aqua.co.uk,+44 1934 983002,377229070,e,True,2023-06-19,Tier 3,Veteran-Owned,AAA,High,East,51.936819382605506,-0.7096223829395356
TW_SUP_0104,Severn Solutions,Heavy Plant & Equipment Hire,United Kingdom,Swindon,Alexander Brooks,alexander.brooks@severn.co.uk,+44 2490 667258,18358119,e,True,2021-06-15,Tier 1,Not Applicable,AAA,Low,East,57.31109390962092,-1.9248210353460804
TW_SUP_0105,White & Taylor Consulting,IT & Technology Solutions,United Kingdom,Winchester,Emma Roberts,emma.roberts@white.co.uk,+44 5215 388844,369237620,e,False,2022-11-30,Tier 1,Small Business,A,Medium,West,54.93176062753958,-0.10652497916019588
TW_SUP_0106,Cyber Cook Partners,Professional Services (Legal/HR),United Kingdom,Southampton,Chloe James,chloe.james@cyber.co.uk,+44 8912 371698,38385753,e,True,2020-12-17,Tier 2,Minority-Owned,CCC,Low,West,54.62796756122444,-1.1762849900268808
TW_SUP_0107,Clear Clarke-Nelson Tech,Environmental Consultancy,United Kingdom,Cambridge,Avery Brooks,avery.brooks@clear.co.uk,+44 8603 620413,347414015,e,True,2020-09-09,Tier 3,Women-Owned,AAA,High,West,53.472916412048306,-5.782650690897031
TW_SUP_0108,Thomas & Morgan Advisory,Health & Safety Consultancy,United Kingdom,Slough,Jane Moore,jane.moore@thomas.co.uk,+44 8592 719553,380947960,e,False,2018-03-08,Tier 1,Women-Owned,A,Critical,South,53.03131651540723,-3.0020461161209635
TW_SUP_0109,Hydro Williams Consulting,Professional Services (Legal/HR),Spain,Valencia,Emma Richardson,emma.richardson@hydro.co.uk,+44 9688 957503,322143842,e,True,2018-08-05,Tier 2,Minority-Owned,A,High,International,50.632501777791504,-76.24142195983802
TW_SUP_0110,Flow Stewart-Nguyen PLC,Waste Management & Sludge Treatment,Germany,Berlin,Alexis Bailey,alexis.bailey@flow.co.uk,+44 1095 795590,292038084,e,True,2023-10-31,Tier 2,Small Business,BB,Low,International,48.17360615976516,29.262145196549284
TW_SUP_0111,Data Insight Consulting 3,Customer Service Solutions,United Kingdom,Edinburgh,Alexis Hughes,alexis.hughes@data.co.uk,+44 6301 760592,39393724,e,True,2023-06-15,Tier 3,Veteran-Owned,AAA,Critical,East,52.39598870415572,-3.3984647512828703
TW_SUP_0112,Clear Mitchell Dynamics,Water Treatment Plant Operations,United States,New York,Anna Ross,anna.ross@clear.co.uk,+44 6722 201722,274674830,e,True,2022-07-21,Tier 2,Small Business,CCC,High,International,50.5351578911193,-1.1040613077096708
TW_SUP_0113,Aqua Torres Ltd,Civil Engineering & Construction,United Kingdom,Birmingham,Ryan Rodriguez,ryan.rodriguez@aqua.co.uk,+44 6953 495477,293847312,e,False,2018-05-27,Tier 1,Minority-Owned,AAA,Critical,North,55.562557121767156,-4.571530931240798
TW_SUP_0114,Kennet Group,IT & Technology Solutions,United Kingdom,Southampton,Madison Ross,madison.ross@kennet.co.uk,+44 1748 522651,368533710,e,True,2017-11-16,Tier 2,Small Business,B,High,Central,50.692667524548156,-3.7086206067919796
TW_SUP_0115,Flow Martinez Engineering,Metering Technology & Services,United Kingdom,Swindon,Nicole Roberts,nicole.roberts@flow.co.uk,+44 8456 415783,152889812,e,True,2019-08-11,Tier 1,Women-Owned,Not Rated,Critical,North,50.94488313134614,-5.426290273303316
TW_SUP_0116,Data Kelly Solutions,Fleet Management & Logistics,United Kingdom,Cambridge,Anthony Morgan,anthony.morgan@data.co.uk,+44 8605 310312,395543960,e,True,2023-01-30,Tier 3,Small Business,B,High,South,56.35372513180864,-2.8131948238142086
TW_SUP_0117,Chem Evans Ltd,Mechanical & Electrical Engineering,United Kingdom,Leeds,Natalie Lewis,natalie.lewis@chem.co.uk,+44 8571 265457,26490302,e,True,2020-05-10,Tier 1,Women-Owned,B,Low,Central,55.69924643552888,-3.8261667195798825
TW_SUP_0118,Enviro Rivera-Howard Consulting,Leakage Detection Services,United Kingdom,Basingstoke,Olivia Ward,olivia.ward@enviro.co.uk,+44 2832 732464,107942447,e,False,2019-03-26,Tier 3,Women-Owned,AAA,Critical,South,53.18082787655347,-3.831210012274721
TW_SUP_0119,Digital Scott Tech,Professional Services (Legal/HR),United Kingdom,Chelmsford,James Brown,james.brown@digital.co.uk,+44 6363 997412,190889114,e,False,2020-11-16,Tier 1,Small Business,AA,High,South,57.850889331379875,-5.368132722165528
TW_SUP_0120,Data Clarke-Turner Tech,Research & Development,United Kingdom,Oxford,Avery Green,avery.green@data.co.uk,+44 6362 564155,190210198,e,True,2021-03-22,Tier 2,Not Applicable,AAA,Medium,East,53.42372951915601,-4.198029784831308
TW_SUP_0121,King & Ross Partners,Health & Safety Consultancy,United Kingdom,Edinburgh,Anna Ross,anna.ross@king.co.uk,+44 9620 881706,151898270,e,True,2019-01-28,Tier 2,Women-Owned,BBB,Low,North,56.0265774578385,-1.388709337368775
TW_SUP_0122,London Dynamics,Research & Development,United Kingdom,Birmingham,Grace Bailey,grace.bailey@london.co.uk,+44 9590 315116,291719275,e,False,2023-11-03,Tier 3,Not Applicable,A,Low,West,53.44883499732971,-5.938497715455238
TW_SUP_0123,Gutierrez & Bennett Consulting,Waste Management & Sludge Treatment,United Kingdom,Oxford,Christopher Turner,christopher.turner@gutierrez.co.uk,+44 8841 432328,55111097,e,True,2021-05-28,Tier 2,Not Applicable,AA,Medium,North,54.584483242159465,1.6058889923964932
TW_SUP_0124,Pipe Insight Consulting 3,Water Treatment Plant Operations,Spain,Madrid,Robert Rivera,robert.rivera@pipe.co.uk,+44 9719 344076,122676504,e,True,2023-03-29,Tier 3,Veteran-Owned,BBB,Medium,International,30.36191327792411,-15.570007734047891
TW_SUP_0125,Tech Richardson-Wilson Solutions,Research & Development,United Kingdom,Manchester,Harper Cooper,harper.cooper@tech.co.uk,+44 6947 768901,143937916,e,True,2023-06-01,Tier 1,Not Applicable,AA,Low,East,50.56064944940192,1.2046590665054202
TW_SUP_0126,London Jones-Bennett Water,Professional Services (Legal/HR),United Kingdom,Birmingham,Samuel Hall,samuel.hall@london.co.uk,+44 5441 395005,144000519,e,True,2020-02-28,Tier 2,Minority-Owned,BB,High,East,54.42944521102487,1.6958367653043496
TW_SUP_0127,Thames Morales-Garcia Dynamics,Health & Safety Consultancy,United Kingdom,Glasgow,Amelia Jackson,amelia.jackson@thames.co.uk,+44 5247 107497,159608180,e,True,2019-04-12,Tier 1,Women-Owned,A,High,West,54.044033132633906,1.0383513823811494
TW_SUP_0128,Enviro PLC,Mechanical & Electrical Engineering,United Kingdom,Maidstone,Emma Jackson,emma.jackson@enviro.co.uk,+44 9568 149982,291913672,e,True,2019-08-26,Tier 3,Veteran-Owned,A,High,East,50.249381021137786,0.06366299754023341
TW_SUP_0129,Aqua Martin Utilities,Environmental Consultancy,United Kingdom,Glasgow,Emma Morales,emma.morales@aqua.co.uk,+44 4809 293793,305857007,e,True,2022-04-13,Tier 1,Small Business,BBB,Medium,South,52.00658875797483,-2.1483542835131657
TW_SUP_0130,Flow Watson-Bell Partners,Environmental Consultancy,United Kingdom,Bristol,Lila Bennett,lila.bennett@flow.co.uk,+44 8102 428452,183293401,e,True,2021-03-17,Tier 1,Small Business,BB,Critical,South,56.20298918932905,-4.61951368626522
TW_SUP_0131,Aqua Bennett PLC,Engineering Design Services,United Kingdom,Liverpool,Alexis Cooper,alexis.cooper@aqua.co.uk,+44 8769 354076,182586204,e,True,2020-05-31,Tier 3,Minority-Owned,BBB,Low,Central,55.06082986093183,-4.526946981025988
TW_SUP_0132,Miller & Stewart Consulting,Research & Development,United Kingdom,Birmingham,Samuel Kelly,samuel.kelly@miller.co.uk,+44 5362 837429,384640709,e,True,2018-01-16,Tier 1,Minority-Owned,CCC,Medium,North,56.03998278343389,-1.3733186099895622
TW_SUP_0133,Pipe Insight Advisory 2,Chemicals Supply,Netherlands,Amsterdam,Samantha Long,samantha.long@pipe.co.uk,+44 9242 936637,105372088,e,True,2020-04-07,Tier 2,Women-Owned,B,Low,International,46.031330328856924,-5.932809489867466
TW_SUP_0134,Clear Reed-Smith Ltd,Pipeline & Network Maintenance,United Kingdom,London,Alice Ramirez,alice.ramirez@clear.co.uk,+44 8028 417006,273886310,e,True,2021-12-21,Tier 2,Minority-Owned,A,Low,East,57.385022563860545,-2.2780151251796976
TW_SUP_0135,Southern James-Morgan Systems,Metering Technology & Services,United Kingdom,Cambridge,Avery Hughes,avery.hughes@southern.co.uk,+44 4365 397519,390757678,e,True,2018-02-02,Tier 3,Women-Owned,B,High,Central,57.478289621421226,-0.03093085701735454
TW_SUP_0136,Jenkins & Turner Partners,IT & Technology Solutions,United Kingdom,Aylesbury,Liam Morris,liam.morris@jenkins.co.uk,+44 7821 189468,245882462,e,True,2018-01-28,Tier 1,Veteran-Owned,BB,Critical,West,56.542362212103825,-4.274389838492889
TW_SUP_0137,Southern Harris-Wright Advisory,Professional Services (Legal/HR),Germany,Frankfurt,Nicholas Rodriguez,nicholas.rodriguez@southern.co.uk,+44 4221 556277,124087734,e,True,2024-02-04,Tier 1,Women-Owned,CCC,High,International,35.189730695361035,1.1167313818997684
TW_SUP_0138,Severn Insight Advisory 2,Facilities Management,United Kingdom,Liverpool,Mia Thompson,mia.thompson@severn.co.uk,+44 1831 593705,206032991,e,True,2018-01-13,Tier 2,Small Business,Not Rated,Low,West,57.775961121140206,0.9512643060669621
TW_SUP_0139,Flow Dynamics,Waste Management & Sludge Treatment,United Kingdom,Liverpool,David Howard,david.howard@flow.co.uk,+44 5619 931771,521104,e,True,2024-05-23,Tier 1,Women-Owned,AA,Critical,West,57.23297595056926,0.8451843518472453
TW_SUP_0140,Fisher & Richardson Consulting,Engineering Design Services,United Kingdom,London,Abigail Price,abigail.price@fisher.co.uk,+44 4220 865711,39120625,e,True,2020-09-07,Tier 3,Women-Owned,AA,Low,South,55.18157605685016,-4.453195605588772
TW_SUP_0141,Data Gutierrez Water,Research & Development,United Kingdom,Basingstoke,Joshua Sullivan,joshua.sullivan@data.co.uk,+44 2235 364988,172972740,e,True,2018-02-08,Tier 3,Veteran-Owned,Not Rated,Low,South,50.40309422283232,1.1324040808166842
TW_SUP_0142,UK King-Sullivan Partners,Pipeline & Network Maintenance,United Kingdom,London,Nicole Rivera,nicole.rivera@uk.co.uk,+44 3522 590149,368039224,e,True,2021-05-08,Tier 3,Not Applicable,Not Rated,Low,South,55.79456687507919,-2.547367806997705
TW_SUP_0143,Stewart & Butler Advisory,Metering Technology & Services,United Kingdom,Manchester,Allison Davis,allison.davis@stewart.co.uk,+44 5500 651667,131334534,e,True,2021-04-09,Tier 2,Veteran-Owned,AA,High,West,54.18392907115705,-0.050041121495169705
TW_SUP_0144,Pipe Nguyen Group,Professional Services (Legal/HR),United Kingdom,Bristol,Emma Taylor,emma.taylor@pipe.co.uk,+44 6961 237746,242161885,e,True,2023-07-16,Tier 3,Small Business,Not Rated,Low,Central,56.70337951446474,-4.022339833207394
TW_SUP_0145,Cyber Foster-Richardson Services,Customer Service Solutions,United Kingdom,Slough,Abigail Kelly,abigail.kelly@cyber.co.uk,+44 6536 285741,58027154,e,True,2022-06-26,Tier 1,Veteran-Owned,AAA,Critical,Central,53.9062531944458,-3.043291242816416
TW_SUP_0146,Brooks & Walker Advisory,Metering Technology & Services,Spain,Valencia,Avery Bennett,avery.bennett@brooks.co.uk,+44 7276 436906,333030272,e,True,2023-03-01,Tier 1,Minority-Owned,CCC,Low,International,36.63632670904508,-67.6547959285821
TW_SUP_0147,Flores & Cooper Advisory,Pipeline & Network Maintenance,United Kingdom,Reading,Ava Smith,ava.smith@flores.co.uk,+44 2133 281991,259435311,e,True,2021-06-30,Tier 3,Not Applicable,B,Medium,South,55.28539126988756,-5.602094235711577
TW_SUP_0148,Brooks & Nguyen Advisory,Professional Services (Legal/HR),France,Bordeaux,Joseph Gray,joseph.gray@brooks.co.uk,+44 6882 142121,144498653,e,True,2019-03-17,Tier 2,Small Business,BBB,Low,International,48.97988391466096,9.633185770188533
TW_SUP_0149,UK Young-Hall Advisory,Engineering Design Services,United Kingdom,Edinburgh,Madison Ross,madison.ross@uk.co.uk,+44 3694 854460,54929260,e,False,2021-09-05,Tier 1,Minority-Owned,AA,Low,West,56.90441525119083,-3.073440672681694
TW_SUP_0150,Hydro Partners,Health & Safety Consultancy,United Kingdom,Glasgow,Lily Clark,lily.clark@hydro.co.uk,+44 2679 472014,44821593,e,True,2018-11-24,Tier 2,Small Business,Not Rated,Low,Central,57.002700349458394,-1.1294536313409216
